{
  "cities": [
    { "id": 1, "city": "Barcelona", "country": "España", "population": "5585556", "latitude":"41.38879", "longitude":"2.15899" },
    { "id": 2, "city": "Chicago", "country": "Estados Unidos", "population": "2686530", "latitude":"41.85003", "longitude":"-87.65005"  },
    { "id": 3, "city": "Estambul", "country": "Turquía", "population": "15190336", "latitude":"41.01384", "longitude":"28.94966"  },
    { "id": 4, "city": "Roma", "country": "Italia", "population": "4257056", "latitude":"41.89193", "longitude":"12.51133" },
    { "id": 5, "city": "Shenyang", "country": "China", "population": "1442299618", "latitude":"41.79222", "longitude":"123.43278"  },
    { "id": 6, "city": "París", "country": "Francia", "population": "11017230", "latitude":"48.85341", "longitude":"2.3488"  },
    { "id": 7, "city": "Cotonú", "country": "Benín", "population": "695737", "latitude":"6.36536", "longitude":"2.41833"  }
  ],
  "comments": [
    { "id": 1, "body": "some comment", "postId": 1 }
  ],
  "profile": { "name": "typicode" }
}